{
  "type": "FeatureCollection",
  "name": "Syracuse_Parks_%26_Recreation_Community_Centers",
  "crs": {
    "type": "name",
    "properties": { "name": "urn:ogc:def:crs:OGC:1.3:CRS84" }
  },
  "features": [
    {
      "type": "Feature",
      "address": "Kirk Park Seals Community Center, 300 W Borden Ave, Syracuse, NY 13205",
      "properties": {
        "park": "Kirk Park",
        "name": "Kirk Park Seals Community Center",
        "COMMUNITY_CENTER": "Yes",
        "latitude": 43.025991,
        "longitude": -76.153647,
        "FID": 1
      },
      "geometry": { "type": "Point", "coordinates": [-76.153647, 43.025991] }
    },
    {
      "type": "Feature",
      "address": "Butternut Community Police Center at Schiller Park, 223 Whitwell Dr, Syracuse, NY 13203",
      "properties": {
        "park": "Schiller Park",
        "name": "Butternut Community Police Center",
        "COMMUNITY_CENTER": "Yes",
        "latitude": 43.065739,
        "longitude": -76.138583,
        "FID": 2
      },
      "accessibility": "https://search.inclusiverec.org/agencies/6096",
      "geometry": { "type": "Point", "coordinates": [-76.138583, 43.065739] }
    },
    {
      "type": "Feature",
      "address": "Magnarelli Community Center, 2308 Grant Blvd, Syracuse, NY 13208",
      "properties": {
        "park": "McChesney Park",
        "name": "Magnarelli Community Center",
        "COMMUNITY_CENTER": "Yes",
        "latitude": 43.074292,
        "longitude": -76.145929,
        "FID": 3
      },
      "geometry": { "type": "Point", "coordinates": [-76.145929, 43.074292] }
    },
    {
      "type": "Feature",
      "properties": {
        "park": "Wilson Park",
        "name": "Wilson Park Community Center",
        "COMMUNITY_CENTER": "Yes",
        "address": "1117 S. McBride St.",
        "latitude": 43.039942,
        "longitude": -76.143658,
        "FID": 4
      },
      "accessibility": "https://search.inclusiverec.org/agencies/4472",
      "geometry": { "type": "Point", "coordinates": [-76.143658, 43.039942] }
    },
    {
      "type": "Feature",
      "address": "Cecile Community Center, 174 W Seneca Turnpike, Syracuse, NY 13205",
      "properties": {
        "park": "Meachem Field",
        "name": "Bob Cecile Community Center",
        "COMMUNITY_CENTER": "Yes",
        "latitude": 43.001564,
        "longitude": -76.146325,
        "FID": 5
      },
      "url": "https://www.syr.gov/Venues/Bob-Cecile-Community-Center",
      "geometry": { "type": "Point", "coordinates": [-76.146325, 43.001564] }
    },
    {
      "type": "Feature",
      "properties": {
        "park": "Westmoreland Park",
        "name": "Westmoreland Park Community Center",
        "COMMUNITY_CENTER": "Yes",
        "latitude": 43.050298,
        "longitude": -76.115442,
        "FID": 6
      },
      "geometry": { "type": "Point", "coordinates": [-76.115442, 43.050298] }
    },
    {
      "type": "Feature",
      "address": "Burnet Arts & Crafts Facility, 521-549 Burnet Park Dr, Syracuse, NY 13204",
      "properties": {
        "park": "Burnet Park",
        "name": "Burnet Park Arts & Crafts Center",
        "COMMUNITY_CENTER": "Yes",
        "latitude": 43.042294,
        "longitude": -76.184737,
        "FID": 7
      },
      "gallery": {
        "parent": [4]
      },
      "geometry": { "type": "Point", "coordinates": [-76.184737, 43.042294] }
    },
    {
      "type": "Feature",
      "address": "Syracuse Dunbar Center, 1453 S State St, Syracuse, NY 13205",
      "properties": {
        "park": "Dunbar Park",
        "name": "Syracuse Dunbar Center",
        "COMMUNITY_CENTER": "Yes",
        "latitude": 43.03188110668436,
        "longitude": -76.14582995459281,
        "FID": 8
      },
      "link": "https://www.syracusedunbarcenter.org/",
      "gallery": {
        "parent": []
      },
      "geometry": {
        "type": "Point",
        "coordinates": [-76.14582995459281, 43.031881106684364]
      }
    },
    {
      "type": "Feature",
      "address": "529 Cannon St, Syracuse, NY 13205",
      "properties": {
        "name": "Cannon Street Community Center",
        "COMMUNITY_CENTER": "Yes",
        "latitude": 43.02066222429721,
        "longitude": -76.14601132420066,
        "FID": 9
      },
      "gallery": {
        "parent": []
      },
      "geometry": {
        "type": "Point",
        "coordinates": [-76.14601132420066, 43.02066222429721]
      }
    },
    {
      "type": "Feature",
      "address": "230 Lincoln Avenue, Syracuse, NY 13204",
      "properties": {
        "name": "Southwest Community Center",
        "COMMUNITY_CENTER": "Yes",
        "latitude": 43.035092226352646,
        "longitude": -76.15778043758611,
        "FID": 10
      },
      "geometry": {
        "type": "Point",
        "coordinates": [-76.15778043758611, 43.035092226352646]
      }
    },
    {
      "type": "Feature",
      "address": "Syracuse Northeast Community Center, 716 Hawley Ave, Syracuse, NY 13203",
      "properties": {
        "name": "Syracuse Northeast Community Center",
        "COMMUNITY_CENTER": "Yes",
        "latitude": 43.054760480211655,
        "longitude": -76.13244964118738,
        "FID": 11
      },
      "geometry": {
        "type": "Point",
        "coordinates": [-76.13244964118738, 43.054760480211655]
      }
    },
    {
      "type": "Feature",
      "address": "Westcott Community Center, 826 Euclid Ave, Syracuse, NY 13210",
      "properties": {
        "name": "Westcott Community Center",
        "COMMUNITY_CENTER": "Yes",
        "latitude": 43.03655171619336,
        "longitude": -76.11923668781384,
        "FID": 12
      },
      "link": "https://westcottcc.org/",
      "geometry": {
        "type": "Point",
        "coordinates": [-76.11923668781384, 43.03655171619336]
      }
    },
    {
      "type": "Feature",
      "address": "Tipp Hill Community Center, 201 Hamilton St, Syracuse, NY 13204",
      "properties": {
        "name": "Tipp Hill Community Center",
        "COMMUNITY_CENTER": "Yes",
        "latitude": 43.05122881982562,
        "longitude": -76.18293300006485,
        "FID": 13
      },
      "geometry": {
        "type": "Point",
        "coordinates": [-76.18293300006485, 43.05122881982562]
      }
    }
  ]
}
