{
  "type": "FeatureCollection",
  "name": "Syracuse_Parks_%26_Recreation_Community_Centers",
  "crs": {
    "type": "name",
    "properties": { "name": "urn:ogc:def:crs:OGC:1.3:CRS84" }
  },
  "features": [
    {
      "type": "Feature",
      "properties": {
        "Park": "Kirk Park Seals Community Center",
        "COMMUNITY_CENTER": "Yes",
        "address": "300 W. Borden Ave. ",
        "latitude": 43.025991,
        "longitude": -76.153647,
        "FID": 1
      },
      "geometry": { "type": "Point", "coordinates": [-76.153647, 43.025991] }
    },
    {
      "type": "Feature",
      "properties": {
        "Park": "Bova Community Center\nat Schiller Park",
        "COMMUNITY_CENTER": "Yes",
        "address": "223 Whitwell Dr.",
        "latitude": 43.065739,
        "longitude": -76.138583,
        "FID": 2
      },
      "accessibility": "https://search.inclusiverec.org/agencies/6096",
      "geometry": { "type": "Point", "coordinates": [-76.138583, 43.065739] }
    },
    {
      "type": "Feature",
      "properties": {
        "Park": "Magnarelli Community Center\nat McChesney Park",
        "COMMUNITY_CENTER": "Yes",
        "address": "2308 Grant Blvd. ",
        "latitude": 43.074292,
        "longitude": -76.145929,
        "FID": 3
      },
      "geometry": { "type": "Point", "coordinates": [-76.145929, 43.074292] }
    },
    {
      "type": "Feature",
      "properties": {
        "Park": "Wilson Park Community Center",
        "COMMUNITY_CENTER": "Yes",
        "address": "1117 S. McBride St.",
        "latitude": 43.039942,
        "longitude": -76.143658,
        "FID": 4
      },
      "accessibility": "https://search.inclusiverec.org/agencies/4472",
      "geometry": { "type": "Point", "coordinates": [-76.143658, 43.039942] }
    },
    {
      "type": "Feature",
      "properties": {
        "Park": "Bob Cecile Community Center",
        "COMMUNITY_CENTER": "Yes",
        "address": "174 W. Seneca Turnpike",
        "latitude": 43.001564,
        "longitude": -76.146325,
        "FID": 5
      },
      "geometry": { "type": "Point", "coordinates": [-76.146325, 43.001564] }
    },
    {
      "type": "Feature",
      "properties": {
        "Park": "Westmoreland Community Center",
        "COMMUNITY_CENTER": "Yes",
        "address": "130 Westmoreland Ave. ",
        "latitude": 43.050298,
        "longitude": -76.115442,
        "FID": 6
      },
      "geometry": { "type": "Point", "coordinates": [-76.115442, 43.050298] }
    },
    {
      "type": "Feature",
      "properties": {
        "Park": "Burnet Park Arts & Crafts Center",
        "COMMUNITY_CENTER": "Yes",
        "address": "297 Coleridge Ave. ",
        "latitude": 43.042294,
        "longitude": -76.184737,
        "FID": 7
      },
      "geometry": { "type": "Point", "coordinates": [-76.184737, 43.042294] }
    },
    {
      "type": "Feature",
      "properties": {
        "Park": null,
        "COMMUNITY_CENTER": null,
        "address": null,
        "latitude": null,
        "longitude": null,
        "FID": 8
      },
      "geometry": { "type": "Point", "coordinates": [-76.187259, 43.040223] }
    },
    {
      "type": "Feature",
      "properties": {
        "Park": null,
        "COMMUNITY_CENTER": null,
        "address": null,
        "latitude": null,
        "longitude": null,
        "FID": 9
      },
      "geometry": { "type": "Point", "coordinates": [-76.114377, 43.058912] }
    }
  ]
}
